[
  {
    "venue_id": "90f0ff71-611b-4a14-bc5a-1a961ac32631",
    "venue_name": "WeWork | The Domain",
    "latitude": 30.404854,
    "longitude": -97.721344,
    "reservations": 82,
    "spend": 4484.0
  },
  {
    "venue_id": "56f0359b-2b83-4fb8-8ba6-cebb3587ee3f",
    "venue_name": "The Malin East Austin",
    "latitude": 30.25848,
    "longitude": -97.728958,
    "reservations": 32,
    "spend": 3000.0
  },
  {
    "venue_id": "6a9fbf36-3fc1-434a-a0df-bfa101ac592d",
    "venue_name": "Common Desk - 6th & Congress",
    "latitude": 30.268147,
    "longitude": -97.742287,
    "reservations": 20,
    "spend": 975.0
  },
  {
    "venue_id": "de3ed332-a021-44f3-89dc-473da893654d",
    "venue_name": "fibercove",
    "latitude": 30.251471,
    "longitude": -97.766937,
    "reservations": 9,
    "spend": 815.0
  },
  {
    "venue_id": "0bc3ddf6-c158-4410-b95d-4a43d36e444d",
    "venue_name": "Trick Hat Workway",
    "latitude": 30.267586,
    "longitude": -97.754318,
    "reservations": 13,
    "spend": 715.0
  },
  {
    "venue_id": "cb17af79-1aeb-475d-9283-f726ee755628",
    "venue_name": "Expansive - Austin Highland",
    "latitude": 30.330395,
    "longitude": -97.710548,
    "reservations": 7,
    "spend": 698.0
  },
  {
    "venue_id": "6b5843d4-1f56-45f2-8754-9878fa92d85f",
    "venue_name": "Expansive - North Austin",
    "latitude": 30.443642,
    "longitude": -97.695786,
    "reservations": 8,
    "spend": 608.0
  },
  {
    "venue_id": "b60bc01e-0f72-4d0b-a176-02cb016767fa",
    "venue_name": "Common Desk - Anderson Lane",
    "latitude": 30.355192,
    "longitude": -97.730339,
    "reservations": 16,
    "spend": 450.0
  },
  {
    "venue_id": "078af5a6-cc7b-4c8b-ad02-e2d3e98d7a3d",
    "venue_name": "Regus || 111 Congress",
    "latitude": 30.263519,
    "longitude": -97.743584,
    "reservations": 2,
    "spend": 438.0
  },
  {
    "venue_id": "cfd6e4d3-63a0-48fc-affd-cd01c86b0092",
    "venue_name": "FUSE Workspace-Bee Cave",
    "latitude": 30.324968,
    "longitude": -97.960419,
    "reservations": 14,
    "spend": 420.0
  },
  {
    "venue_id": "d585a2ad-6a56-4459-97b8-df63186dc656",
    "venue_name": "Cafe Creme",
    "latitude": 30.231857,
    "longitude": -97.735634,
    "reservations": 2,
    "spend": 300.0
  },
  {
    "venue_id": "d3b8b904-6a57-40cd-a076-aedd4e2bde7d",
    "venue_name": "WeWork | University Park",
    "latitude": 30.291239,
    "longitude": -97.722778,
    "reservations": 3,
    "spend": 183.0
  },
  {
    "venue_id": "79edc6f6-9ba5-4d2f-abde-16b7eb36d4fe",
    "venue_name": "SPACES | TX, Austin- Westview",
    "latitude": 30.27508,
    "longitude": -97.743797,
    "reservations": 1,
    "spend": 169.0
  },
  {
    "venue_id": "bcabfec9-e090-4005-ac25-672352a78384",
    "venue_name": "Regus | North MoPac",
    "latitude": 30.352606,
    "longitude": -97.750183,
    "reservations": 2,
    "spend": 160.2
  },
  {
    "venue_id": "abb916d1-6285-4240-ba7c-03279779ca71",
    "venue_name": "Industrious - Victory Plaza",
    "latitude": 30.324385,
    "longitude": -97.739067,
    "reservations": 2,
    "spend": 150.0
  },
  {
    "venue_id": "4cb5c3e5-dda8-48d6-b969-094e6cc47764",
    "venue_name": "Regus | Westlake",
    "latitude": 30.28097,
    "longitude": -97.823753,
    "reservations": 1,
    "spend": 139.0
  },
  {
    "venue_id": "079e8f36-19fd-4288-80ea-9817cbea85a3",
    "venue_name": "Dwell Coworking West Gate",
    "latitude": 30.209538,
    "longitude": -97.814941,
    "reservations": 1,
    "spend": 89.0
  },
  {
    "venue_id": "0e007938-151b-49e1-ad2b-73b3c591d710",
    "venue_name": "Expansive - Plaza on the Lake",
    "latitude": 30.349682,
    "longitude": -97.801193,
    "reservations": 2,
    "spend": 76.0
  },
  {
    "venue_id": "31461605-f595-42ea-81da-93198ac83917",
    "venue_name": "Industrious - 5th and Colorado",
    "latitude": 30.267303,
    "longitude": -97.744835,
    "reservations": 1,
    "spend": 75.0
  },
  {
    "venue_id": "6727825f-fc27-48a0-9ad2-da9fe081dbfd",
    "venue_name": "Industrious - San Jacinto Blvd",
    "latitude": 30.261522,
    "longitude": -97.741753,
    "reservations": 1,
    "spend": 63.0
  },
  {
    "venue_id": "58dc8ab0-fa4a-40ce-b580-9e6debeccd0f",
    "venue_name": "Regus | Arboretum Plaza",
    "latitude": 30.390301,
    "longitude": -97.748596,
    "reservations": 1,
    "spend": 32.04
  },
  {
    "venue_id": "a030b5ba-13c8-40bd-a379-d979841fc46b",
    "venue_name": "FUSE Workspace-Four Points",
    "latitude": 30.410009,
    "longitude": -97.851631,
    "reservations": 1,
    "spend": 30.0
  },
  {
    "venue_id": "6640551d-d18e-44e6-a6ef-50bcaf05996b",
    "venue_name": "FUSE Workspace-East MLK",
    "latitude": 30.279993,
    "longitude": -97.719215,
    "reservations": 1,
    "spend": 30.0
  },
  {
    "venue_id": "05622ecc-3826-4d97-818a-f06c58e46bb3",
    "venue_name": "Createscape",
    "latitude": 30.260464,
    "longitude": -97.703888,
    "reservations": 1,
    "spend": 25.0
  }
]