[
  {
    "venue_id": "353e8c94-d0d5-4284-b5ed-64c579d237ca",
    "venue_name": "The Wilderness Fitness and Coworking",
    "latitude": 44.948807,
    "longitude": -93.292709,
    "reservations": 18,
    "spend": 803.0
  },
  {
    "venue_id": "ce60eb24-6c61-4e76-9f8d-f44680e87c86",
    "venue_name": "Coco Minneapolis at the Historic Grain Exchange",
    "latitude": 44.977539,
    "longitude": -93.263641,
    "reservations": 3,
    "spend": 135.0
  },
  {
    "venue_id": "03a1841f-b77d-4630-98a6-3c0af75bef1d",
    "venue_name": "SPACES || North Loop",
    "latitude": 44.9832,
    "longitude": -93.2714,
    "reservations": 1,
    "spend": 127.81
  },
  {
    "venue_id": "f7841047-53ad-4e59-bf46-e1c10e26120f",
    "venue_name": "Coco Northeast Minneapolis",
    "latitude": 45.002602,
    "longitude": -93.248878,
    "reservations": 1,
    "spend": 50.0
  },
  {
    "venue_id": "927e82c5-aa9d-4e55-aad3-c8ae0a48e371",
    "venue_name": "Workbox Downtown Minneapolis",
    "latitude": 44.975018,
    "longitude": -93.271431,
    "reservations": 1,
    "spend": 35.0
  }
]