[
  {
    "venue_id": "8dc888d2-5146-4b7f-a842-211e30b4e52e",
    "venue_name": "Two Thirty",
    "latitude": 41.89579,
    "longitude": -87.63562,
    "reservations": 32,
    "spend": 2720.0
  },
  {
    "venue_id": "1337d907-08b1-4200-839f-fe5547768266",
    "venue_name": "Working From_",
    "latitude": 41.885857,
    "longitude": -87.649055,
    "reservations": 42,
    "spend": 2280.0
  },
  {
    "venue_id": "fbd8397a-5479-41e4-b44a-fd33ad5fa59e",
    "venue_name": "350 Coworking | 350 N. Orleans",
    "latitude": 41.888039,
    "longitude": -87.637657,
    "reservations": 17,
    "spend": 890.0
  },
  {
    "venue_id": "c8075780-e397-465b-b631-4b4cd8d62ccd",
    "venue_name": "Second Shift",
    "latitude": 41.932182,
    "longitude": -87.713608,
    "reservations": 28,
    "spend": 840.0
  },
  {
    "venue_id": "a23d9d6d-f148-4766-be2b-f1e28eba0bcb",
    "venue_name": "WeWork | 1 South Dearborn",
    "latitude": 41.88168,
    "longitude": -87.628746,
    "reservations": 10,
    "spend": 350.0
  },
  {
    "venue_id": "04ed0f0a-e91f-4273-b13b-649fc0778f38",
    "venue_name": "Expansive - North Center",
    "latitude": 41.951618,
    "longitude": -87.674217,
    "reservations": 8,
    "spend": 304.0
  },
  {
    "venue_id": "3b1d7996-78c7-496d-9700-944f948364ee",
    "venue_name": "Expansive - River North – Superior",
    "latitude": 41.895267,
    "longitude": -87.639038,
    "reservations": 2,
    "spend": 228.0
  },
  {
    "venue_id": "18d059f9-efa3-4a3e-9db8-5d6d219ff6c2",
    "venue_name": "Expansive - Magnificent Mile",
    "latitude": 41.892788,
    "longitude": -87.623909,
    "reservations": 3,
    "spend": 203.0
  },
  {
    "venue_id": "b3f423ca-ce58-4490-b50e-01f7ea1863d2",
    "venue_name": "Desk606",
    "latitude": 41.917133,
    "longitude": -87.709778,
    "reservations": 6,
    "spend": 200.0
  },
  {
    "venue_id": "69eadbe5-702b-4405-ad25-3b39d7b218d2",
    "venue_name": "Carr Workplaces - Aon Center",
    "latitude": 41.885284,
    "longitude": -87.621513,
    "reservations": 3,
    "spend": 185.0
  },
  {
    "venue_id": "549966a2-ad66-4a1e-994e-a81fe9d3ae1e",
    "venue_name": "HUB116 - River North",
    "latitude": 41.890244,
    "longitude": -87.631897,
    "reservations": 3,
    "spend": 170.0
  },
  {
    "venue_id": "1bb8484d-f72f-4f39-a55c-23498f14ed24",
    "venue_name": "WeWork | 515 N State",
    "latitude": 41.891422,
    "longitude": -87.62735,
    "reservations": 3,
    "spend": 141.0
  },
  {
    "venue_id": "582caaa3-c555-4f5a-9708-8b39566547b1",
    "venue_name": "Workbox Gold Coast",
    "latitude": 41.903667,
    "longitude": -87.631096,
    "reservations": 4,
    "spend": 140.0
  },
  {
    "venue_id": "2a8f36b0-0ac0-4358-955d-ecd5f4d735ae",
    "venue_name": "Workbox - The Loop",
    "latitude": 41.879906,
    "longitude": -87.630463,
    "reservations": 4,
    "spend": 140.0
  },
  {
    "venue_id": "14d256c9-8a0d-40a7-8d5d-93a483e1e731",
    "venue_name": "Expansive - The Loop",
    "latitude": 41.880531,
    "longitude": -87.63028,
    "reservations": 2,
    "spend": 127.0
  },
  {
    "venue_id": "a8d3ecf3-e3a7-441b-8799-0522ba404176",
    "venue_name": "WeWork | Bridgeview Bank - Uptown",
    "latitude": 41.968765,
    "longitude": -87.659111,
    "reservations": 3,
    "spend": 119.0
  },
  {
    "venue_id": "234d442f-b630-4b73-88a6-6d71e81296fd",
    "venue_name": "Expansive - Wacker",
    "latitude": 41.886505,
    "longitude": -87.634575,
    "reservations": 3,
    "spend": 114.0
  },
  {
    "venue_id": "5c8af16c-fc20-4805-b484-8739db529cee",
    "venue_name": "WeWork | 448 N LaSalle",
    "latitude": 41.890614,
    "longitude": -87.633217,
    "reservations": 3,
    "spend": 105.0
  },
  {
    "venue_id": "7fdd0f72-f27a-4905-8d4c-85046591c3fc",
    "venue_name": "SPACES | Chicago, Spaces West Ohio Street",
    "latitude": 41.892643,
    "longitude": -87.636475,
    "reservations": 1,
    "spend": 97.5
  },
  {
    "venue_id": "107f916f-148f-436a-be1e-29c0701be38f",
    "venue_name": "WeWork | 167 North Green Street",
    "latitude": 41.885155,
    "longitude": -87.648491,
    "reservations": 2,
    "spend": 94.0
  },
  {
    "venue_id": "20383fcd-219e-4212-8900-989f2c6a9e2b",
    "venue_name": "Prism Spaces",
    "latitude": 41.903885,
    "longitude": -87.667801,
    "reservations": 1,
    "spend": 75.0
  },
  {
    "venue_id": "0238e282-8f92-425a-b950-354cd9718962",
    "venue_name": "Regus | Hyde Park",
    "latitude": 41.802052,
    "longitude": -87.589088,
    "reservations": 1,
    "spend": 64.0
  },
  {
    "venue_id": "8b13f616-78c8-472b-ad09-e6d4c99c9b5b",
    "venue_name": "Industrious - Central Loop",
    "latitude": 41.878521,
    "longitude": -87.63163,
    "reservations": 1,
    "spend": 63.0
  },
  {
    "venue_id": "04847fd4-1443-4694-8f2e-b1fbe424bc9c",
    "venue_name": "Industrious - Wicker Park",
    "latitude": 41.903442,
    "longitude": -87.670898,
    "reservations": 1,
    "spend": 63.0
  },
  {
    "venue_id": "2885c5f5-48b8-4955-a405-b1b52042598d",
    "venue_name": "Nimbler-Spaces - 444 N. Wabash",
    "latitude": 41.890648,
    "longitude": -87.626839,
    "reservations": 2,
    "spend": 60.0
  },
  {
    "venue_id": "8043f716-d220-481d-958b-2178b338a663",
    "venue_name": "Regus | John Hancock Center",
    "latitude": 41.899139,
    "longitude": -87.623009,
    "reservations": 1,
    "spend": 56.0
  },
  {
    "venue_id": "6c504787-3001-4a91-a3ac-83e3d7613f16",
    "venue_name": "Life Time Work - River North at One Chicago",
    "latitude": 41.8965,
    "longitude": -87.628494,
    "reservations": 1,
    "spend": 55.0
  },
  {
    "venue_id": "fecd727c-8ce2-4c39-8d5b-02e253d26c69",
    "venue_name": "Workbox River North",
    "latitude": 41.894073,
    "longitude": -87.636063,
    "reservations": 1,
    "spend": 35.0
  },
  {
    "venue_id": "0f6b3b8c-534b-4b7d-a349-8dbe72e91adc",
    "venue_name": "Workbox Union Station",
    "latitude": 41.879162,
    "longitude": -87.643929,
    "reservations": 1,
    "spend": 35.0
  }
]