[
  {
    "venue_id": "0d2e2090-e7cc-4b42-8e30-bb1b87f4faa9",
    "venue_name": "WeWork | Brickell City Centre",
    "latitude": 25.76725,
    "longitude": -80.193665,
    "reservations": 89,
    "spend": 5947.0
  },
  {
    "venue_id": "b24ac095-9b7b-46a6-82ea-45d109fb6cda",
    "venue_name": "Mindspace Wynwood ",
    "latitude": 25.804304,
    "longitude": -80.195572,
    "reservations": 47,
    "spend": 3865.0
  },
  {
    "venue_id": "e232e8c2-70da-4f97-b43c-1b800e43ef2e",
    "venue_name": "WeWork | Wynwood Garage",
    "latitude": 25.801878,
    "longitude": -80.201698,
    "reservations": 61,
    "spend": 3483.0
  },
  {
    "venue_id": "2ee5a873-5ca2-45d4-aa94-7c22bebf1431",
    "venue_name": "Mindspace 100 Biscayne",
    "latitude": 25.775812,
    "longitude": -80.188248,
    "reservations": 4,
    "spend": 1355.0
  },
  {
    "venue_id": "4b670cdc-c37f-4308-95f1-d7cc092f7b85",
    "venue_name": "Tedge Mindful Coworking",
    "latitude": 25.808411,
    "longitude": -80.194069,
    "reservations": 12,
    "spend": 585.0
  },
  {
    "venue_id": "588c7777-d99e-4e11-84d6-36f076287019",
    "venue_name": "Nimbler Spaces Miami",
    "latitude": 25.782152,
    "longitude": -80.19017,
    "reservations": 12,
    "spend": 540.0
  },
  {
    "venue_id": "adce5b7e-1fc9-4486-98f5-a66dc5c2739b",
    "venue_name": "Work Plus Office",
    "latitude": 25.764019,
    "longitude": -80.19178,
    "reservations": 2,
    "spend": 335.0
  },
  {
    "venue_id": "e74753cd-12d8-4783-837a-3f5d0fd95951",
    "venue_name": "Büro MiMo",
    "latitude": 25.84231,
    "longitude": -80.184731,
    "reservations": 3,
    "spend": 160.0
  },
  {
    "venue_id": "400076eb-d767-42c3-9e1a-bae13aa23707",
    "venue_name": "BrainBox",
    "latitude": 25.810936,
    "longitude": -80.198349,
    "reservations": 2,
    "spend": 152.5
  },
  {
    "venue_id": "7416f4dd-0313-45a8-b3da-37ea9ec8d956",
    "venue_name": "Industrious - Brickell",
    "latitude": 25.762472,
    "longitude": -80.190559,
    "reservations": 2,
    "spend": 150.0
  },
  {
    "venue_id": "9d6c3182-77ca-447a-a787-26ddb105b7a5",
    "venue_name": "Büro Coconut Grove",
    "latitude": 25.727617,
    "longitude": -80.242088,
    "reservations": 1,
    "spend": 120.0
  },
  {
    "venue_id": "3b4d31d8-fa85-4fd7-8acc-5dc20a547bac",
    "venue_name": "WorQ Coworking",
    "latitude": 25.763351,
    "longitude": -80.19046,
    "reservations": 2,
    "spend": 100.0
  },
  {
    "venue_id": "2c8dda30-0db1-413a-bb11-92f54726585c",
    "venue_name": "Industrious - Wynwood",
    "latitude": 25.803448,
    "longitude": -80.200378,
    "reservations": 1,
    "spend": 75.0
  },
  {
    "venue_id": "5ffa56d3-d213-40ff-a877-3e03ce057099",
    "venue_name": "Regus | Dadeland",
    "latitude": 25.685221,
    "longitude": -80.313866,
    "reservations": 1,
    "spend": 72.0
  },
  {
    "venue_id": "653a4320-04e9-4999-becb-9170fd633cf1",
    "venue_name": "WeWork | 2222 Ponce de Leon",
    "latitude": 25.751348,
    "longitude": -80.259087,
    "reservations": 1,
    "spend": 47.0
  },
  {
    "venue_id": "894c9ddd-9a5e-43a8-901b-315dd1e684c2",
    "venue_name": "Regus | Wells Fargo Plaza",
    "latitude": 25.771601,
    "longitude": -80.190102,
    "reservations": 2,
    "spend": 39.5
  }
]