[
  {
    "venue_id": "23da23da-e224-4dfc-bdd6-519a359c9778",
    "venue_name": "Bond Collective - Center City (Station House)",
    "latitude": 39.954189,
    "longitude": -75.167664,
    "reservations": 7,
    "spend": 1055.0
  },
  {
    "venue_id": "fdd45d32-9f6c-4e38-af7d-fd9ec5a561c8",
    "venue_name": "WeWork | 1900 Market",
    "latitude": 39.95311,
    "longitude": -75.172455,
    "reservations": 11,
    "spend": 483.0
  },
  {
    "venue_id": "15bd0a8a-d62a-43c7-983a-ba367fff492d",
    "venue_name": "Task Up",
    "latitude": 39.951851,
    "longitude": -75.173706,
    "reservations": 1,
    "spend": 300.0
  },
  {
    "venue_id": "b5acc1e9-5305-4e53-8092-0909b1270e9d",
    "venue_name": "Mindspace Philadelphia",
    "latitude": 39.951294,
    "longitude": -75.161926,
    "reservations": 3,
    "spend": 96.0
  },
  {
    "venue_id": "5a2c1877-4944-4b83-9c34-9e7f43de544a",
    "venue_name": "The Yard: Center City",
    "latitude": 39.95084,
    "longitude": -75.158501,
    "reservations": 2,
    "spend": 90.0
  },
  {
    "venue_id": "ed6c70b4-17a4-4d0f-99c5-4b7f8bad6d12",
    "venue_name": "WeWork | 1100 Ludlow St",
    "latitude": 39.95359,
    "longitude": -75.179359,
    "reservations": 2,
    "spend": 84.0
  },
  {
    "venue_id": "34535f82-d7ac-4f59-b4af-5e7dfa39e067",
    "venue_name": "Regus | Philadelphia - Chestnut Street",
    "latitude": 39.9491,
    "longitude": -75.147102,
    "reservations": 1,
    "spend": 79.0
  },
  {
    "venue_id": "bf4e6966-a031-4c3f-9bb8-705ab7ffa9aa",
    "venue_name": "Regus | One Liberty Place",
    "latitude": 39.95261,
    "longitude": -75.168068,
    "reservations": 1,
    "spend": 45.0
  },
  {
    "venue_id": "b59ced71-0ad0-40e6-9da6-9cb48557667e",
    "venue_name": "Regus | 123 S Broad Street",
    "latitude": 39.949791,
    "longitude": -75.163712,
    "reservations": 1,
    "spend": 29.25
  },
  {
    "venue_id": "6443f797-1b0f-4fb1-a8a1-d87783dc381d",
    "venue_name": "Just Strategies Hub",
    "latitude": 40.052418,
    "longitude": -75.185959,
    "reservations": 1,
    "spend": 25.0
  }
]