[
  {
    "venue_id": "d4ad5230-5d33-4ca1-be9c-60f7afe4ff3e",
    "venue_name": "Bond Collective - East Austin",
    "latitude": 30.261042,
    "longitude": -97.727951,
    "reservations": 30,
    "spend": 1035.0
  },
  {
    "venue_id": "b60bc01e-0f72-4d0b-a176-02cb016767fa",
    "venue_name": "Common Desk - Anderson Lane",
    "latitude": 30.355192,
    "longitude": -97.730339,
    "reservations": 8,
    "spend": 200.0
  },
  {
    "venue_id": "90f0ff71-611b-4a14-bc5a-1a961ac32631",
    "venue_name": "WeWork | The Domain",
    "latitude": 30.404854,
    "longitude": -97.721344,
    "reservations": 3,
    "spend": 171.0
  },
  {
    "venue_id": "56f0359b-2b83-4fb8-8ba6-cebb3587ee3f",
    "venue_name": "The Malin East Austin",
    "latitude": 30.25848,
    "longitude": -97.728958,
    "reservations": 3,
    "spend": 150.0
  },
  {
    "venue_id": "6640551d-d18e-44e6-a6ef-50bcaf05996b",
    "venue_name": "FUSE Workspace-East MLK",
    "latitude": 30.279993,
    "longitude": -97.719215,
    "reservations": 2,
    "spend": 60.0
  },
  {
    "venue_id": "6a9fbf36-3fc1-434a-a0df-bfa101ac592d",
    "venue_name": "Common Desk - 6th & Congress",
    "latitude": 30.268147,
    "longitude": -97.742287,
    "reservations": 2,
    "spend": 50.0
  },
  {
    "venue_id": "0bc3ddf6-c158-4410-b95d-4a43d36e444d",
    "venue_name": "Trick Hat Workway",
    "latitude": 30.267586,
    "longitude": -97.754318,
    "reservations": 1,
    "spend": 50.0
  },
  {
    "venue_id": "cb17af79-1aeb-475d-9283-f726ee755628",
    "venue_name": "Expansive - Austin Highland",
    "latitude": 30.330395,
    "longitude": -97.710548,
    "reservations": 1,
    "spend": 38.0
  },
  {
    "venue_id": "43be11d8-ed01-4cee-91de-a272e0d71f42",
    "venue_name": "WeWork | Quarry Oaks II",
    "latitude": 30.400875,
    "longitude": -97.735176,
    "reservations": 1,
    "spend": 37.0
  }
]