[
  {
    "venue_id": "64720c6f-d267-4eae-895f-c5ec2170a06d",
    "venue_name": "The Malin Soho",
    "latitude": 40.721004,
    "longitude": -74.001396,
    "reservations": 53,
    "spend": 4190.0
  },
  {
    "venue_id": "c0382c4b-1327-4db1-be07-bc4484510a3f",
    "venue_name": "WeWork | 199 Water St",
    "latitude": 40.706936,
    "longitude": -74.004486,
    "reservations": 59,
    "spend": 3254.0
  },
  {
    "venue_id": "2aac1bad-7037-490a-8f9d-bbbca3c43e70",
    "venue_name": "The Malin West Village",
    "latitude": 40.734024,
    "longitude": -74.007866,
    "reservations": 32,
    "spend": 2505.0
  },
  {
    "venue_id": "13b6059d-4f63-4146-b995-753ff8cb21ce",
    "venue_name": "WeWork | 135 Madison Ave",
    "latitude": 40.74604,
    "longitude": -73.984032,
    "reservations": 6,
    "spend": 282.0
  },
  {
    "venue_id": "c068e985-dca6-4226-afec-c250e0a1fb4d",
    "venue_name": "Serendipity Labs - New York - Financial District",
    "latitude": 40.707855,
    "longitude": -74.00898,
    "reservations": 5,
    "spend": 245.0
  },
  {
    "venue_id": "328d7f5d-9a9b-4b16-bf91-cadfee83cb95",
    "venue_name": "WeWork | 368 9th Ave",
    "latitude": 40.751068,
    "longitude": -73.997719,
    "reservations": 5,
    "spend": 235.0
  },
  {
    "venue_id": "31783397-9e95-48a7-b2f9-bff827fbefb7",
    "venue_name": "Workville",
    "latitude": 40.753639,
    "longitude": -73.986526,
    "reservations": 4,
    "spend": 196.0
  },
  {
    "venue_id": "505dfae7-a576-4b3a-a8e6-7ff1f8834fdb",
    "venue_name": "WeWork | 450 Lexington Ave",
    "latitude": 40.753265,
    "longitude": -73.975441,
    "reservations": 4,
    "spend": 188.0
  },
  {
    "venue_id": "7264e559-cece-4400-b21c-facc38cb69e2",
    "venue_name": "WeWork | 160 Varick Street",
    "latitude": 40.726715,
    "longitude": -74.005272,
    "reservations": 4,
    "spend": 180.0
  },
  {
    "venue_id": "edffd735-7d3b-448b-84af-f261e97f6611",
    "venue_name": "The Yard: Lower East Side NYC",
    "latitude": 40.718731,
    "longitude": -73.989693,
    "reservations": 5,
    "spend": 175.0
  },
  {
    "venue_id": "dc4a9483-dcbc-4d47-92aa-5a3b19d9057d",
    "venue_name": "Servcorp - Financial District NYC",
    "latitude": 40.702831,
    "longitude": -74.013947,
    "reservations": 4,
    "spend": 160.0
  },
  {
    "venue_id": "408c9023-8523-4da0-ba96-e6937ac6fe3a",
    "venue_name": "The Malin NoMad",
    "latitude": 40.742805,
    "longitude": -73.984062,
    "reservations": 2,
    "spend": 150.0
  },
  {
    "venue_id": "3729e70c-acd2-4e39-991b-2b198841cd85",
    "venue_name": "Industrious - Upper West Side",
    "latitude": 40.771656,
    "longitude": -73.981644,
    "reservations": 1,
    "spend": 125.0
  },
  {
    "venue_id": "ca35b5dc-85a2-4e5f-87bf-e065f32d9d63",
    "venue_name": "Bond Collective 55 Broadway",
    "latitude": 40.706825,
    "longitude": -74.013031,
    "reservations": 4,
    "spend": 100.0
  },
  {
    "venue_id": "654be2b9-cc4d-4f76-90d3-0097805f0a08",
    "venue_name": "WeWork | 18 West 18th Street",
    "latitude": 40.742054,
    "longitude": -74.000237,
    "reservations": 2,
    "spend": 94.0
  },
  {
    "venue_id": "ce783c72-0e4d-42c2-bbbb-d04b23a78d54",
    "venue_name": "The Malin Chelsea",
    "latitude": 40.745792,
    "longitude": -73.994881,
    "reservations": 1,
    "spend": 80.0
  },
  {
    "venue_id": "84f864a3-120a-4124-82ee-a1fa9413d1e7",
    "venue_name": "The Malin Flatiron",
    "latitude": 40.738895,
    "longitude": -73.98999,
    "reservations": 1,
    "spend": 75.0
  },
  {
    "venue_id": "b1d6bd96-f117-49bf-889a-9536ce86b9af",
    "venue_name": "Nomadworks | Times Square",
    "latitude": 40.755268,
    "longitude": -73.989586,
    "reservations": 2,
    "spend": 70.0
  },
  {
    "venue_id": "e4598564-7418-4413-b1bc-11378963715f",
    "venue_name": "WeWork | 154 W 14th St",
    "latitude": 40.738373,
    "longitude": -73.999573,
    "reservations": 1,
    "spend": 59.0
  },
  {
    "venue_id": "71dcd609-3551-45cd-8adb-1bd811a52cc0",
    "venue_name": "Hines | The Square at 205 Hudson Street",
    "latitude": 40.723728,
    "longitude": -74.008438,
    "reservations": 1,
    "spend": 50.0
  },
  {
    "venue_id": "430b1dd9-58b0-47c5-81ea-ec701133c894",
    "venue_name": "WeWork | 450 Park Ave S",
    "latitude": 40.745033,
    "longitude": -73.983154,
    "reservations": 1,
    "spend": 47.0
  },
  {
    "venue_id": "52d81a69-bad3-4148-9fb6-e8684dabc3b5",
    "venue_name": "WeWork | 1460 Broadway",
    "latitude": 40.755104,
    "longitude": -73.986206,
    "reservations": 1,
    "spend": 47.0
  },
  {
    "venue_id": "78dfb691-1abe-4c18-934c-7f9327a06cc8",
    "venue_name": "WorkHouse NYC | Midtown - Grand Central",
    "latitude": 40.756721,
    "longitude": -73.980042,
    "reservations": 1,
    "spend": 40.0
  },
  {
    "venue_id": "f95608c8-df6f-4002-a155-684ee892c98c",
    "venue_name": "Luminary",
    "latitude": 40.746319,
    "longitude": -73.988289,
    "reservations": 1,
    "spend": 39.0
  },
  {
    "venue_id": "aeca193f-16ef-41b7-81a9-6df428dfd21b",
    "venue_name": "The Yard: Lincoln Square",
    "latitude": 40.774311,
    "longitude": -73.980797,
    "reservations": 1,
    "spend": 35.0
  },
  {
    "venue_id": "d559069c-8c87-4be8-a009-a6f0603ef003",
    "venue_name": "WeWork | 500 7th Avenue",
    "latitude": 40.753208,
    "longitude": -73.989326,
    "reservations": 1,
    "spend": 35.0
  },
  {
    "venue_id": "5ad18402-7154-457e-bc09-32a675eaa843",
    "venue_name": "The Yard: Columbus Circle",
    "latitude": 40.769581,
    "longitude": -73.983192,
    "reservations": 1,
    "spend": 35.0
  }
]