[{"venue_id":"columbus-oh-venue-1","venue_name":"Serendipity Labs | Columbus Downtown","latitude":40.0178,"longitude":-82.9312,"reservations":70,"spend":6705.28},{"venue_id":"columbus-oh-venue-2","venue_name":"CommonGrounds | Columbus North","latitude":39.8793,"longitude":-82.9354,"reservations":41,"spend":3928.15},{"venue_id":"columbus-oh-venue-3","venue_name":"Roam | Columbus West","latitude":39.9566,"longitude":-83.0963,"reservations":33,"spend":3149.21},{"venue_id":"columbus-oh-venue-4","venue_name":"WeWork | Columbus Central","latitude":39.9418,"longitude":-82.9005,"reservations":22,"spend":2120.39},{"venue_id":"columbus-oh-venue-5","venue_name":"HQ | Columbus East","latitude":40.0495,"longitude":-82.9503,"reservations":8,"spend":759.15},{"venue_id":"columbus-oh-venue-6","venue_name":"Flex by JLL | Columbus Financial District","latitude":39.9046,"longitude":-83.1022,"reservations":7,"spend":660.71},{"venue_id":"columbus-oh-venue-7","venue_name":"Industrious | Columbus Midtown","latitude":40.0156,"longitude":-82.9895,"reservations":5,"spend":477.11},{"venue_id":"columbus-oh-venue-8","venue_name":"Coda | Columbus Uptown","latitude":39.9313,"longitude":-83.0117,"reservations":3,"spend":293.5}]