[{"venue_id":"irvine-ca-venue-1","venue_name":"Industrious | Irvine Downtown","latitude":33.7146,"longitude":-117.908,"reservations":11,"spend":2122.47},{"venue_id":"irvine-ca-venue-2","venue_name":"Spaces | Irvine North","latitude":33.6625,"longitude":-117.7452,"reservations":10,"spend":1941.82},{"venue_id":"irvine-ca-venue-3","venue_name":"Industrious | Irvine West","latitude":33.7735,"longitude":-117.9116,"reservations":5,"spend":1025.24},{"venue_id":"irvine-ca-venue-4","venue_name":"CommonGrounds | Irvine Central","latitude":33.6187,"longitude":-117.817,"reservations":5,"spend":906.37},{"venue_id":"irvine-ca-venue-5","venue_name":"Novel Coworking | Irvine East","latitude":33.664,"longitude":-117.7459,"reservations":4,"spend":824.81},{"venue_id":"irvine-ca-venue-6","venue_name":"Novel Coworking | Irvine Financial District","latitude":33.7174,"longitude":-117.8014,"reservations":2,"spend":346.3}]