[
  {
    "venue_id": "f36be385-ea35-4534-abb0-0cac35cf51c7",
    "venue_name": "Office Evolution - Tampa | Harbour Island",
    "latitude": 27.938725,
    "longitude": -82.45488,
    "reservations": 77,
    "spend": 24425.0
  },
  {
    "venue_id": "3180a033-521f-41ee-8606-1ceef3563588",
    "venue_name": "Industrious - Centro Ybor",
    "latitude": 27.960709,
    "longitude": -82.441887,
    "reservations": 4,
    "spend": 2594.0
  },
  {
    "venue_id": "de002319-059e-45cc-a379-ddd3775a2a64",
    "venue_name": "Quest Workspaces Rivergate Tampa",
    "latitude": 27.947868,
    "longitude": -82.460724,
    "reservations": 15,
    "spend": 2411.0
  },
  {
    "venue_id": "a9ed4dac-4f9b-43bb-9969-cc69900fd846",
    "venue_name": "CoWorkTampa",
    "latitude": 27.967623,
    "longitude": -82.485153,
    "reservations": 5,
    "spend": 1012.0
  },
  {
    "venue_id": "d054412d-e663-4351-9efc-4163da1fc66f",
    "venue_name": "Office Evolution - Tampa",
    "latitude": 27.945858,
    "longitude": -82.533974,
    "reservations": 2,
    "spend": 360.0
  },
  {
    "venue_id": "03aa435d-7862-421c-bffe-99b9d0348eed",
    "venue_name": "On Point Executive Center",
    "latitude": 27.96871,
    "longitude": -82.569267,
    "reservations": 1,
    "spend": 325.0
  }
]