[
  {
    "venue_id": "b006579a-4a7f-4eca-873e-c41bf2503ffd",
    "venue_name": "Local Office",
    "latitude": 29.725185,
    "longitude": -95.419434,
    "reservations": 96,
    "spend": 2400.0
  },
  {
    "venue_id": "a00bbc35-4d8b-4542-a2f3-d5f104414936",
    "venue_name": "The Village Suites",
    "latitude": 29.720381,
    "longitude": -95.417824,
    "reservations": 77,
    "spend": 1925.0
  },
  {
    "venue_id": "d4ef8fc0-0561-4ec0-b01d-69a84323f302",
    "venue_name": "FUSE Workspace-City Centre",
    "latitude": 29.779018,
    "longitude": -95.561096,
    "reservations": 2,
    "spend": 1805.0
  },
  {
    "venue_id": "c3ce03aa-b395-454d-b2ef-ee3818ede996",
    "venue_name": "Lucid Private Offices | Uptown Tanglewood",
    "latitude": 29.73851,
    "longitude": -95.478889,
    "reservations": 9,
    "spend": 315.0
  },
  {
    "venue_id": "bfa70e18-5ce8-4017-8b2c-54b26125d2e7",
    "venue_name": "Common Desk - Post Oak Blvd",
    "latitude": 29.734978,
    "longitude": -95.462791,
    "reservations": 11,
    "spend": 275.0
  },
  {
    "venue_id": "a052f435-32e2-4140-b857-83c00ebe814b",
    "venue_name": "Expansive - Upper Kirby/Greenway",
    "latitude": 29.730885,
    "longitude": -95.426277,
    "reservations": 4,
    "spend": 152.0
  },
  {
    "venue_id": "4e0a6f99-4c90-4ddc-a9a4-9a9fafe804b0",
    "venue_name": "Sesh Coworking",
    "latitude": 29.742676,
    "longitude": -95.372612,
    "reservations": 1,
    "spend": 28.0
  }
]