[{"venue_id":"st.-petersburg-fl-venue-1","venue_name":"Venture X | St. Petersburg Downtown","latitude":27.7613,"longitude":-82.6306,"reservations":24,"spend":3389.51},{"venue_id":"st.-petersburg-fl-venue-2","venue_name":"Industrious | St. Petersburg North","latitude":27.8477,"longitude":-82.5648,"reservations":8,"spend":1174.85},{"venue_id":"st.-petersburg-fl-venue-3","venue_name":"Coda | St. Petersburg West","latitude":27.6807,"longitude":-82.7305,"reservations":8,"spend":1103.2},{"venue_id":"st.-petersburg-fl-venue-4","venue_name":"Serendipity Labs | St. Petersburg Central","latitude":27.748,"longitude":-82.6799,"reservations":8,"spend":1091.6},{"venue_id":"st.-petersburg-fl-venue-5","venue_name":"Coda | St. Petersburg East","latitude":27.6797,"longitude":-82.7345,"reservations":3,"spend":426.34}]