[{"venue_id":"tampa-fl-venue-1","venue_name":"IWG | Tampa Downtown","latitude":27.9471,"longitude":-82.4394,"reservations":46,"spend":13978.14},{"venue_id":"tampa-fl-venue-2","venue_name":"HQ | Tampa North","latitude":28.015,"longitude":-82.3703,"reservations":17,"spend":5112.43},{"venue_id":"tampa-fl-venue-3","venue_name":"Novel Coworking | Tampa West","latitude":27.938,"longitude":-82.378,"reservations":12,"spend":3678.2},{"venue_id":"tampa-fl-venue-4","venue_name":"Knotel | Tampa Central","latitude":27.9127,"longitude":-82.3711,"reservations":7,"spend":2184.93},{"venue_id":"tampa-fl-venue-5","venue_name":"Knotel | Tampa East","latitude":27.9143,"longitude":-82.5425,"reservations":6,"spend":1976.53},{"venue_id":"tampa-fl-venue-6","venue_name":"WorkSuites | Tampa Financial District","latitude":27.8621,"longitude":-82.3813,"reservations":6,"spend":1861.67},{"venue_id":"tampa-fl-venue-7","venue_name":"Lucid Private Offices | Tampa Midtown","latitude":27.9852,"longitude":-82.4259,"reservations":3,"spend":932.11}]