[{"venue_id":"carmel-in-venue-1","venue_name":"WeWork | Carmel Downtown","latitude":39.9729,"longitude":-86.1156,"reservations":42,"spend":3983.77},{"venue_id":"carmel-in-venue-2","venue_name":"WeWork | Carmel North","latitude":40.0082,"longitude":-86.0661,"reservations":15,"spend":1399.61},{"venue_id":"carmel-in-venue-3","venue_name":"HQ | Carmel West","latitude":39.9814,"longitude":-86.2268,"reservations":13,"spend":1193.88},{"venue_id":"carmel-in-venue-4","venue_name":"Coda | Carmel Central","latitude":40.0008,"longitude":-86.2063,"reservations":12,"spend":1163.26},{"venue_id":"carmel-in-venue-5","venue_name":"Industrious | Carmel East","latitude":39.9325,"longitude":-86.1165,"reservations":9,"spend":856.48}]