[{"venue_id":"houston-tx-venue-1","venue_name":"Firmspace | Houston Downtown","latitude":29.7591,"longitude":-95.4543,"reservations":85,"spend":2941.45},{"venue_id":"houston-tx-venue-2","venue_name":"WeWork | Houston North","latitude":29.7194,"longitude":-95.3197,"reservations":52,"spend":1783.35},{"venue_id":"houston-tx-venue-3","venue_name":"IWG | Houston West","latitude":29.7829,"longitude":-95.3505,"reservations":25,"spend":856.12},{"venue_id":"houston-tx-venue-4","venue_name":"Venture X | Houston Central","latitude":29.7744,"longitude":-95.26,"reservations":12,"spend":428.32},{"venue_id":"houston-tx-venue-5","venue_name":"Roam | Houston East","latitude":29.7261,"longitude":-95.2787,"reservations":10,"spend":333.5},{"venue_id":"houston-tx-venue-6","venue_name":"CommonGrounds | Houston Financial District","latitude":29.6756,"longitude":-95.4227,"reservations":9,"spend":317.4},{"venue_id":"houston-tx-venue-7","venue_name":"HQ | Houston Midtown","latitude":29.7008,"longitude":-95.2842,"reservations":3,"spend":119.84}]