[
  {
    "venue_id": "5e080182-9688-4f3b-9939-79904d6a5cbf",
    "venue_name": "The Collection-Monthly Private Offices & Event Location",
    "latitude": 34.047287,
    "longitude": -118.256088,
    "reservations": 8,
    "spend": 320.0
  },
  {
    "venue_id": "215cfea7-d0f6-49b0-92fb-cef41eaf1fcf",
    "venue_name": "WeWork | Constellation Place",
    "latitude": 34.05732,
    "longitude": -118.418251,
    "reservations": 3,
    "spend": 141.0
  },
  {
    "venue_id": "67c70736-ac11-4a6f-9c02-650e0dc24ab1",
    "venue_name": "CENTRL Office - Downtown Los Angeles",
    "latitude": 34.04789,
    "longitude": -118.240143,
    "reservations": 3,
    "spend": 120.0
  },
  {
    "venue_id": "970dc4dc-1d74-4eca-ae06-7a112a1b5a01",
    "venue_name": "The Preserve",
    "latitude": 34.096416,
    "longitude": -118.310623,
    "reservations": 3,
    "spend": 110.0
  },
  {
    "venue_id": "9e6dc2b0-453c-44ac-85ca-35f54acae35a",
    "venue_name": "moss",
    "latitude": 33.991669,
    "longitude": -118.468346,
    "reservations": 1,
    "spend": 100.0
  },
  {
    "venue_id": "34fb838d-7ca9-475c-99b2-42f95c9a365b",
    "venue_name": "Union Cowork Los Angeles - Downtown/Arts District",
    "latitude": 34.040375,
    "longitude": -118.231285,
    "reservations": 3,
    "spend": 95.0
  },
  {
    "venue_id": "da8baf69-dbd6-4a9b-a93c-912dedb2b485",
    "venue_name": "Carr Workplaces - DTLA",
    "latitude": 34.048275,
    "longitude": -118.25856,
    "reservations": 2,
    "spend": 90.0
  },
  {
    "venue_id": "66232db0-a90c-4605-81a4-202d39358a1f",
    "venue_name": "Ethos Society",
    "latitude": 34.062267,
    "longitude": -118.298485,
    "reservations": 1,
    "spend": 35.0
  },
  {
    "venue_id": "227f860d-207b-4c13-941e-f86b16d094fb",
    "venue_name": "BLANKSPACES Hollywood Sunset",
    "latitude": 34.097729,
    "longitude": -118.333458,
    "reservations": 1,
    "spend": 20.0
  }
]