[
  {
    "venue_id": "5e080182-9688-4f3b-9939-79904d6a5cbf",
    "venue_name": "The Collection-Monthly Private Offices & Event Location",
    "latitude": 34.04728698730469,
    "longitude": -118.25608825683594,
    "reservations": 8,
    "spend": 320.0
  },
  {
    "venue_id": "215cfea7-d0f6-49b0-92fb-cef41eaf1fcf",
    "venue_name": "WeWork | Constellation Place",
    "latitude": 34.05731964111328,
    "longitude": -118.41825103759766,
    "reservations": 3,
    "spend": 141.0
  },
  {
    "venue_id": "67c70736-ac11-4a6f-9c02-650e0dc24ab1",
    "venue_name": "CENTRL Office - Downtown Los Angeles",
    "latitude": 34.047889709472656,
    "longitude": -118.24014282226562,
    "reservations": 3,
    "spend": 120.0
  },
  {
    "venue_id": "970dc4dc-1d74-4eca-ae06-7a112a1b5a01",
    "venue_name": "The Preserve",
    "latitude": 34.09641647338867,
    "longitude": -118.31062316894531,
    "reservations": 3,
    "spend": 110.0
  },
  {
    "venue_id": "34fb838d-7ca9-475c-99b2-42f95c9a365b",
    "venue_name": "Union Cowork Los Angeles - Downtown/Arts District",
    "latitude": 34.040374755859375,
    "longitude": -118.23128509521484,
    "reservations": 3,
    "spend": 95.0
  }
]