[
  {
    "venue_id": "08417222-6f86-4c34-b745-dc0dd1b452aa",
    "venue_name": "Historic Blackwell Mansion",
    "latitude": 47.260826,
    "longitude": -122.442741,
    "reservations": 108,
    "spend": 34910.0
  },
  {
    "venue_id": "26d861a2-ede8-4283-acb4-7e9e16ec81cd",
    "venue_name": "TractionSpace 748",
    "latitude": 47.255833,
    "longitude": -122.442596,
    "reservations": 70,
    "spend": 17458.0
  },
  {
    "venue_id": "88846bf1-d38b-44b7-9da5-13df3e0f6cbf",
    "venue_name": "The Pioneer Collective - Tacoma",
    "latitude": 47.253155,
    "longitude": -122.437485,
    "reservations": 15,
    "spend": 3710.0
  },
  {
    "venue_id": "2249608d-f6ff-4b06-b342-eca745c29b9b",
    "venue_name": "Surge South Tacoma",
    "latitude": 47.207909,
    "longitude": -122.483429,
    "reservations": 20,
    "spend": 685.0
  },
  {
    "venue_id": "c8b3b89b-4c4a-4d3d-848d-e61af8dbb3bc",
    "venue_name": "Union Club Tacoma",
    "latitude": 47.258686,
    "longitude": -122.441376,
    "reservations": 4,
    "spend": 575.0
  },
  {
    "venue_id": "9928b5d2-d7e8-4338-b760-6c30aad08720",
    "venue_name": "WorkSphere Tacoma",
    "latitude": 47.252579,
    "longitude": -122.438889,
    "reservations": 7,
    "spend": 525.0
  }
]