[
  {
    "venue_id": "5c8af16c-fc20-4805-b484-8739db529cee",
    "venue_name": "WeWork | 448 N LaSalle",
    "latitude": 41.890614,
    "longitude": -87.633217,
    "reservations": 5,
    "spend": 798.0
  },
  {
    "venue_id": "c2dfd1ef-5919-4d7a-8edc-acca53304ade",
    "venue_name": "WeWork | 330 N. Wabash",
    "latitude": 41.88863,
    "longitude": -87.627502,
    "reservations": 10,
    "spend": 470.0
  },
  {
    "venue_id": "1337d907-08b1-4200-839f-fe5547768266",
    "venue_name": "Working From_",
    "latitude": 41.885857,
    "longitude": -87.649055,
    "reservations": 11,
    "spend": 405.0
  },
  {
    "venue_id": "1bb8484d-f72f-4f39-a55c-23498f14ed24",
    "venue_name": "WeWork | 515 N State",
    "latitude": 41.891422,
    "longitude": -87.62735,
    "reservations": 6,
    "spend": 282.0
  },
  {
    "venue_id": "fecd727c-8ce2-4c39-8d5b-02e253d26c69",
    "venue_name": "Workbox River North",
    "latitude": 41.894073,
    "longitude": -87.636063,
    "reservations": 6,
    "spend": 210.0
  },
  {
    "venue_id": "6c504787-3001-4a91-a3ac-83e3d7613f16",
    "venue_name": "Life Time Work - River North at One Chicago",
    "latitude": 41.8965,
    "longitude": -87.628494,
    "reservations": 2,
    "spend": 110.0
  },
  {
    "venue_id": "c8075780-e397-465b-b631-4b4cd8d62ccd",
    "venue_name": "Second Shift",
    "latitude": 41.932182,
    "longitude": -87.713608,
    "reservations": 1,
    "spend": 90.0
  },
  {
    "venue_id": "5d3aba00-f7e0-41fb-b541-9bb67926070e",
    "venue_name": "Expansive - West Loop",
    "latitude": 41.87944,
    "longitude": -87.636009,
    "reservations": 1,
    "spend": 38.0
  },
  {
    "venue_id": "234d442f-b630-4b73-88a6-6d71e81296fd",
    "venue_name": "Expansive - Wacker",
    "latitude": 41.886505,
    "longitude": -87.634575,
    "reservations": 1,
    "spend": 38.0
  },
  {
    "venue_id": "edf0548a-07d1-49ca-b642-b09a0ab1fe19",
    "venue_name": "Workbox Magnificent Mile",
    "latitude": 41.889839,
    "longitude": -87.6269,
    "reservations": 1,
    "spend": 35.0
  },
  {
    "venue_id": "549966a2-ad66-4a1e-994e-a81fe9d3ae1e",
    "venue_name": "HUB116 - River North",
    "latitude": 41.890244,
    "longitude": -87.631897,
    "reservations": 1,
    "spend": 30.0
  }
]