[
  {
    "venue_id": "adfd069a-c949-4a9b-a04a-3b73ecaac9af",
    "venue_name": "Boston Offices - One Boston Place",
    "latitude": 42.35862,
    "longitude": -71.058357,
    "reservations": 6,
    "spend": 3510.0
  },
  {
    "venue_id": "0480182a-dfdc-416e-897c-731f880ba6ca",
    "venue_name": "Boston Offices - Exchange Place",
    "latitude": 42.358521,
    "longitude": -71.056107,
    "reservations": 2,
    "spend": 1140.0
  },
  {
    "venue_id": "db7f6905-7393-4dc4-a1e6-b4f6c6149deb",
    "venue_name": "Intelligent Office - Boston",
    "latitude": 42.356529,
    "longitude": -71.053352,
    "reservations": 4,
    "spend": 590.0
  },
  {
    "venue_id": "ec27d5a8-3ce8-4d07-b4dc-8842c39de5a8",
    "venue_name": "The Westin Copley Place",
    "latitude": 42.348473,
    "longitude": -71.076935,
    "reservations": 1,
    "spend": 350.0
  },
  {
    "venue_id": "385bfc41-bf7e-411b-80b7-bc21f58476fa",
    "venue_name": "Idea Space - Back Bay",
    "latitude": 42.348598,
    "longitude": -71.083443,
    "reservations": 1,
    "spend": 290.0
  },
  {
    "venue_id": "b094c3db-c40b-4a3a-b064-6438832df969",
    "venue_name": "Industrious - Boston Financial District\n",
    "latitude": 42.353809,
    "longitude": -71.057388,
    "reservations": 2,
    "spend": 150.0
  },
  {
    "venue_id": "36313d6b-1824-4ab7-9e5e-79d129d783c2",
    "venue_name": "Workbar Back Bay",
    "latitude": 42.35181,
    "longitude": -71.072182,
    "reservations": 1,
    "spend": 29.0
  },
  {
    "venue_id": "74d712f5-cc68-4d25-afc5-d8f11d52d442",
    "venue_name": "Workbar Downtown",
    "latitude": 42.357273,
    "longitude": -71.058968,
    "reservations": 1,
    "spend": 29.0
  }
]