[
  {
    "venue_id": "9e6dc2b0-453c-44ac-85ca-35f54acae35a",
    "venue_name": "moss",
    "latitude": 33.991669,
    "longitude": -118.468346,
    "reservations": 16,
    "spend": 1265.0
  },
  {
    "venue_id": "a5ec1221-4875-4908-9680-43f4897b74c1",
    "venue_name": "Wilshire 1001 Premium Flex Space & Coworking Solutions",
    "latitude": 34.051807,
    "longitude": -118.261391,
    "reservations": 15,
    "spend": 525.0
  },
  {
    "venue_id": "970dc4dc-1d74-4eca-ae06-7a112a1b5a01",
    "venue_name": "The Preserve",
    "latitude": 34.096416,
    "longitude": -118.310623,
    "reservations": 12,
    "spend": 435.0
  },
  {
    "venue_id": "34fb838d-7ca9-475c-99b2-42f95c9a365b",
    "venue_name": "Union Cowork Los Angeles - Downtown/Arts District",
    "latitude": 34.040375,
    "longitude": -118.231285,
    "reservations": 7,
    "spend": 220.0
  },
  {
    "venue_id": "7e200d85-2bb7-476c-b1c3-43114668609a",
    "venue_name": "(WIL) The Tower",
    "latitude": 34.058052,
    "longitude": -118.445068,
    "reservations": 2,
    "spend": 198.0
  },
  {
    "venue_id": "9e46b78c-dd0a-4ed8-b4cf-b9cc9b195f89",
    "venue_name": "SPACES || Fairfax",
    "latitude": 34.073002,
    "longitude": -118.362,
    "reservations": 2,
    "spend": 170.0
  },
  {
    "venue_id": "5e080182-9688-4f3b-9939-79904d6a5cbf",
    "venue_name": "The Collection-Monthly Private Offices & Event Location",
    "latitude": 34.047287,
    "longitude": -118.256088,
    "reservations": 4,
    "spend": 160.0
  },
  {
    "venue_id": "67c70736-ac11-4a6f-9c02-650e0dc24ab1",
    "venue_name": "CENTRL Office - Downtown Los Angeles",
    "latitude": 34.04789,
    "longitude": -118.240143,
    "reservations": 3,
    "spend": 120.0
  },
  {
    "venue_id": "7e7c885b-81fa-4a6e-9c83-6d02b8dcf078",
    "venue_name": "SPACES || La Brea",
    "latitude": 34.088116,
    "longitude": -118.34465,
    "reservations": 1,
    "spend": 38.81
  },
  {
    "venue_id": "b8013d83-8d0f-414c-a79c-51da79f2cc51",
    "venue_name": "Indie Desk",
    "latitude": 34.05283,
    "longitude": -118.252312,
    "reservations": 1,
    "spend": 20.0
  },
  {
    "venue_id": "aec6b871-2ff1-46da-8f40-693443eac0c5",
    "venue_name": "Studious Coworking Space",
    "latitude": 34.065926,
    "longitude": -118.237427,
    "reservations": 1,
    "spend": 18.0
  }
]