[
  {
    "venue_id": "289ed2cd-6bbb-47b7-9b40-811b7d887f19",
    "venue_name": "WeWork | One Lincoln",
    "latitude": 42.353172,
    "longitude": -71.059235,
    "reservations": 49,
    "spend": 2303.0
  },
  {
    "venue_id": "f67a4d86-a7b3-406a-8c7a-592156345ce7",
    "venue_name": "WeWork | 501 Boylston St",
    "latitude": 42.351204,
    "longitude": -71.074524,
    "reservations": 14,
    "spend": 826.0
  },
  {
    "venue_id": "36313d6b-1824-4ab7-9e5e-79d129d783c2",
    "venue_name": "Workbar Back Bay",
    "latitude": 42.35181,
    "longitude": -71.072182,
    "reservations": 18,
    "spend": 733.0
  },
  {
    "venue_id": "3691dac1-4fc0-4e5b-9121-8cae6f093378",
    "venue_name": "WeWork | One Seaport Square",
    "latitude": 42.353436,
    "longitude": -71.047676,
    "reservations": 10,
    "spend": 590.0
  },
  {
    "venue_id": "e1ee2389-a21b-47e3-ad84-455f12be8116",
    "venue_name": "The Village Works - Jamaica Plain",
    "latitude": 42.310081,
    "longitude": -71.115364,
    "reservations": 1,
    "spend": 250.0
  },
  {
    "venue_id": "385bfc41-bf7e-411b-80b7-bc21f58476fa",
    "venue_name": "Idea Space - Back Bay",
    "latitude": 42.348598,
    "longitude": -71.083443,
    "reservations": 1,
    "spend": 178.0
  },
  {
    "venue_id": "02d000c6-e18e-4f4b-a531-2c3e9d1dd262",
    "venue_name": "WeWork | 200 Portland",
    "latitude": 42.364552,
    "longitude": -71.062263,
    "reservations": 2,
    "spend": 70.0
  },
  {
    "venue_id": "74d712f5-cc68-4d25-afc5-d8f11d52d442",
    "venue_name": "Workbar Downtown",
    "latitude": 42.357273,
    "longitude": -71.058968,
    "reservations": 1,
    "spend": 49.0
  }
]