[
  {
    "venue_id": "a4b200f7-bd34-4232-966a-25f39d50fd29",
    "venue_name": "Landmark | Wogan House",
    "latitude": 51.519291,
    "longitude": -0.142691,
    "reservations": 2,
    "spend": 120.63
  },
  {
    "venue_id": "98628c22-679b-40b9-897d-1b336b70b769",
    "venue_name": "Landmark | Farringdon",
    "latitude": 51.517365,
    "longitude": -0.101677,
    "reservations": 1,
    "spend": 120.17
  },
  {
    "venue_id": "0a30f8d1-9003-490c-ba8e-a66357a93f3e",
    "venue_name": "Landmark | 99 Bishopsgate",
    "latitude": 51.515881,
    "longitude": -0.082642,
    "reservations": 1,
    "spend": 118.2
  },
  {
    "venue_id": "34955a55-35eb-4b50-9285-be7a04ae4317",
    "venue_name": "WeWork | Aviation House",
    "latitude": 51.517208,
    "longitude": -0.120691,
    "reservations": 1,
    "spend": 98.08
  },
  {
    "venue_id": "98aaf3a3-2ba0-4372-b8ae-12b80bcee9cb",
    "venue_name": "Knotel - Old Sessions House",
    "latitude": 51.522598,
    "longitude": -0.105789,
    "reservations": 1,
    "spend": 66.37
  },
  {
    "venue_id": "a74ecba4-e9e7-4d60-8c78-348d421978ef",
    "venue_name": "KOZMIK Work Space",
    "latitude": 51.565964,
    "longitude": -0.131529,
    "reservations": 1,
    "spend": 25.4
  },
  {
    "venue_id": "47250084-5a02-4473-988b-68ce338f5b71",
    "venue_name": "Workers League Shoreditch",
    "latitude": 51.522591,
    "longitude": -0.08542,
    "reservations": 1,
    "spend": 25.29
  }
]