[
  {
    "venue_id": "72111bfb-d9ff-49e1-8d41-4826bc032c02",
    "venue_name": "WeWork | 400 Spectrum Center",
    "latitude": 33.651508,
    "longitude": -117.746216,
    "reservations": 18,
    "spend": 630.0
  },
  {
    "venue_id": "198476b0-c90b-4d9c-bfa3-4e0e4357d9d8",
    "venue_name": "Sol Hub",
    "latitude": 33.636009,
    "longitude": -117.742188,
    "reservations": 2,
    "spend": 470.0
  },
  {
    "venue_id": "cda2c1c5-d989-4afd-9d3b-c078e8914ddf",
    "venue_name": "Colab Space",
    "latitude": 33.672916,
    "longitude": -117.862778,
    "reservations": 12,
    "spend": 450.0
  },
  {
    "venue_id": "181e210c-598f-48e1-9a7c-997aff451f1c",
    "venue_name": "WeWork | 2211 Michelson Drive",
    "latitude": 33.677437,
    "longitude": -117.855576,
    "reservations": 11,
    "spend": 351.0
  },
  {
    "venue_id": "ee836b44-d543-4432-8861-2b9a2d43176e",
    "venue_name": "WeWork | 200 Spectrum Center",
    "latitude": 33.652721,
    "longitude": -117.747902,
    "reservations": 10,
    "spend": 350.0
  },
  {
    "venue_id": "6a16d79d-eb5d-4aad-94f2-d9fc20408137",
    "venue_name": "WorkWell",
    "latitude": 33.683262,
    "longitude": -117.833206,
    "reservations": 1,
    "spend": 308.0
  },
  {
    "venue_id": "37ab46a8-6552-434d-b2a4-a0870b3df3cd",
    "venue_name": "WorkSpace Irvine",
    "latitude": 33.690994,
    "longitude": -117.864754,
    "reservations": 2,
    "spend": 70.0
  }
]