[
  {
    "venue_id": "504e1a75-d3ab-49bd-8b49-64bc7d4dae2a",
    "venue_name": "The Hive Executive Suites",
    "latitude": 34.171356,
    "longitude": -118.604553,
    "reservations": 22,
    "spend": 6500.0
  },
  {
    "venue_id": "d1739414-935b-46a6-b599-5864655149c9",
    "venue_name": "(WC2) Warner Center Towers",
    "latitude": 34.17881,
    "longitude": -118.599823,
    "reservations": 5,
    "spend": 4010.0
  },
  {
    "venue_id": "da8baf69-dbd6-4a9b-a93c-912dedb2b485",
    "venue_name": "Carr Workplaces - DTLA",
    "latitude": 34.048275,
    "longitude": -118.25856,
    "reservations": 3,
    "spend": 1680.0
  },
  {
    "venue_id": "b99d1555-1eda-45e4-aabc-f34508db3c9c",
    "venue_name": "WeWork | 12130 Millennium Drive",
    "latitude": 33.97998,
    "longitude": -118.406364,
    "reservations": 2,
    "spend": 118.0
  },
  {
    "venue_id": "7378eeb7-3263-4104-8314-0432a42a5289",
    "venue_name": "Village Workspaces LLC",
    "latitude": 34.033443,
    "longitude": -118.452179,
    "reservations": 2,
    "spend": 80.0
  },
  {
    "venue_id": "34fb838d-7ca9-475c-99b2-42f95c9a365b",
    "venue_name": "Union Cowork Los Angeles - Downtown/Arts District",
    "latitude": 34.040375,
    "longitude": -118.231285,
    "reservations": 1,
    "spend": 45.0
  }
]