[
  {
    "venue_id": "200cae30-0653-46f9-909d-70006ff2953d",
    "venue_name": "DeskLabs",
    "latitude": 41.937294,
    "longitude": -87.648361,
    "reservations": 21,
    "spend": 630.0
  },
  {
    "venue_id": "69eadbe5-702b-4405-ad25-3b39d7b218d2",
    "venue_name": "Carr Workplaces - Aon Center",
    "latitude": 41.885284,
    "longitude": -87.621513,
    "reservations": 2,
    "spend": 285.0
  },
  {
    "venue_id": "1337d907-08b1-4200-839f-fe5547768266",
    "venue_name": "Working From_",
    "latitude": 41.885857,
    "longitude": -87.649055,
    "reservations": 4,
    "spend": 260.0
  },
  {
    "venue_id": "5d3aba00-f7e0-41fb-b541-9bb67926070e",
    "venue_name": "Expansive - West Loop",
    "latitude": 41.87944,
    "longitude": -87.636009,
    "reservations": 2,
    "spend": 237.0
  },
  {
    "venue_id": "fbd8397a-5479-41e4-b44a-fd33ad5fa59e",
    "venue_name": "350 Coworking | 350 N. Orleans",
    "latitude": 41.888039,
    "longitude": -87.637657,
    "reservations": 1,
    "spend": 230.0
  },
  {
    "venue_id": "5c8af16c-fc20-4805-b484-8739db529cee",
    "venue_name": "WeWork | 448 N LaSalle",
    "latitude": 41.890614,
    "longitude": -87.633217,
    "reservations": 1,
    "spend": 124.0
  },
  {
    "venue_id": "107f916f-148f-436a-be1e-29c0701be38f",
    "venue_name": "WeWork | 167 North Green Street",
    "latitude": 41.885155,
    "longitude": -87.648491,
    "reservations": 1,
    "spend": 47.0
  },
  {
    "venue_id": "2a8f36b0-0ac0-4358-955d-ecd5f4d735ae",
    "venue_name": "Workbox - The Loop",
    "latitude": 41.879906,
    "longitude": -87.630463,
    "reservations": 1,
    "spend": 35.0
  },
  {
    "venue_id": "58918a1d-a57a-4ec6-a9a0-fb3c869ed3aa",
    "venue_name": "Workbox - Fulton Market",
    "latitude": 41.886284,
    "longitude": -87.648933,
    "reservations": 1,
    "spend": 35.0
  },
  {
    "venue_id": "582caaa3-c555-4f5a-9708-8b39566547b1",
    "venue_name": "Workbox Gold Coast",
    "latitude": 41.903667,
    "longitude": -87.631096,
    "reservations": 1,
    "spend": 35.0
  },
  {
    "venue_id": "2885c5f5-48b8-4955-a405-b1b52042598d",
    "venue_name": "Nimbler-Spaces - 444 N. Wabash",
    "latitude": 41.890648,
    "longitude": -87.626839,
    "reservations": 1,
    "spend": 30.0
  }
]