[
  {
    "venue_id": "de3ed332-a021-44f3-89dc-473da893654d",
    "venue_name": "fibercove",
    "latitude": 30.251471,
    "longitude": -97.766937,
    "reservations": 12,
    "spend": 1255.0
  },
  {
    "venue_id": "6727825f-fc27-48a0-9ad2-da9fe081dbfd",
    "venue_name": "Industrious - San Jacinto Blvd",
    "latitude": 30.261522,
    "longitude": -97.741753,
    "reservations": 2,
    "spend": 990.0
  },
  {
    "venue_id": "05622ecc-3826-4d97-818a-f06c58e46bb3",
    "venue_name": "Createscape",
    "latitude": 30.260464,
    "longitude": -97.703888,
    "reservations": 2,
    "spend": 813.0
  },
  {
    "venue_id": "d4ad5230-5d33-4ca1-be9c-60f7afe4ff3e",
    "venue_name": "Bond Collective - East Austin",
    "latitude": 30.261042,
    "longitude": -97.727951,
    "reservations": 1,
    "spend": 150.0
  },
  {
    "venue_id": "078af5a6-cc7b-4c8b-ad02-e2d3e98d7a3d",
    "venue_name": "Regus || 111 Congress",
    "latitude": 30.263519,
    "longitude": -97.743584,
    "reservations": 1,
    "spend": 119.0
  },
  {
    "venue_id": "4c06b4c2-355f-4ebf-9f5b-bb318ad702da",
    "venue_name": "Office Evolution - Austin",
    "latitude": 30.386972,
    "longitude": -97.759666,
    "reservations": 1,
    "spend": 50.0
  },
  {
    "venue_id": "6b5843d4-1f56-45f2-8754-9878fa92d85f",
    "venue_name": "Expansive - North Austin",
    "latitude": 30.443642,
    "longitude": -97.695786,
    "reservations": 1,
    "spend": 30.0
  }
]