[
  {
    "venue_id": "17205595-cd36-4478-b726-a227091ea3ff",
    "venue_name": "Venture X | LoDo",
    "latitude": 39.753365,
    "longitude": -104.996841,
    "reservations": 11,
    "spend": 12612.0
  },
  {
    "venue_id": "7d1564c9-861a-48cf-b5e7-de0458c35d51",
    "venue_name": "Serendipity Labs - Denver - LoDo",
    "latitude": 39.755554,
    "longitude": -105.000092,
    "reservations": 11,
    "spend": 9345.0
  },
  {
    "venue_id": "c1ca6830-86b1-446e-8486-4a12ee7ab1da",
    "venue_name": "Shift Workspaces | Bannock",
    "latitude": 39.73222,
    "longitude": -104.990662,
    "reservations": 12,
    "spend": 8919.0
  },
  {
    "venue_id": "f19bdf9b-2388-43af-aba2-08ab0d1fe1bc",
    "venue_name": "Candy Factory Coworking",
    "latitude": 39.746292,
    "longitude": -104.995491,
    "reservations": 17,
    "spend": 8538.0
  },
  {
    "venue_id": "6dec1a18-4016-4954-af3b-e21d74ac2f28",
    "venue_name": "Thrive Workplace @ Ballpark",
    "latitude": 39.756802,
    "longitude": -104.989906,
    "reservations": 6,
    "spend": 3650.0
  },
  {
    "venue_id": "b171dbd3-00f7-405c-b3a4-49396ec38f80",
    "venue_name": "Venture X | Denver - Uptown",
    "latitude": 39.741547,
    "longitude": -104.987793,
    "reservations": 7,
    "spend": 2875.0
  },
  {
    "venue_id": "d8afe4ce-6d70-4d19-93ca-b403fd7e53c6",
    "venue_name": "Venture X | Denver North",
    "latitude": 39.753468,
    "longitude": -104.979317,
    "reservations": 2,
    "spend": 1665.0
  }
]