[
  {
    "venue_id": "998b586e-f3f7-4d31-9027-dfc77ccef870",
    "venue_name": "Carr Workplaces - Embarcadero Center",
    "latitude": 37.794697,
    "longitude": -122.399872,
    "reservations": 68,
    "spend": 27455.0
  },
  {
    "venue_id": "913826af-14e7-46d9-aa0d-9e0c21b4ece0",
    "venue_name": "WeWork | Two Embarcadero Center",
    "latitude": 37.794788,
    "longitude": -122.398407,
    "reservations": 14,
    "spend": 7264.0
  },
  {
    "venue_id": "d5fe14f4-1035-4935-9a57-b472b20703b4",
    "venue_name": "Townsend Enterprises",
    "latitude": 37.776226,
    "longitude": -122.396507,
    "reservations": 9,
    "spend": 6620.0
  },
  {
    "venue_id": "86adf684-9c3a-42fb-93ff-dcbf8160db35",
    "venue_name": "AvantSpace- Greenwich St.",
    "latitude": 37.798859,
    "longitude": -122.435616,
    "reservations": 5,
    "spend": 1662.0
  },
  {
    "venue_id": "bc0eb5d2-c57d-48e4-ade0-a8b6d1256d2d",
    "venue_name": "Pacific Workplaces - San Francisco SOMA",
    "latitude": 37.791389,
    "longitude": -122.392151,
    "reservations": 5,
    "spend": 1080.0
  },
  {
    "venue_id": "03dbac2d-0388-4c2b-bd29-f247c6c6e6e4",
    "venue_name": "EcoSystem Coworking",
    "latitude": 37.787693,
    "longitude": -122.397339,
    "reservations": 1,
    "spend": 250.0
  },
  {
    "venue_id": "63e05db7-684c-4783-a9ea-968c00ac5bc7",
    "venue_name": "WeWork | Salesforce Tower",
    "latitude": 37.789818,
    "longitude": -122.396904,
    "reservations": 2,
    "spend": 164.0
  },
  {
    "venue_id": "dbd959c2-cc61-4aab-8957-b67e36032da1",
    "venue_name": "Mindspace San Francisco",
    "latitude": 37.789848,
    "longitude": -122.400696,
    "reservations": 1,
    "spend": 40.0
  },
  {
    "venue_id": "870fe233-2abc-4ff7-803e-f5a356484058",
    "venue_name": "Groundfloor",
    "latitude": 37.765648,
    "longitude": -122.421623,
    "reservations": 1,
    "spend": 25.0
  },
  {
    "venue_id": "fca34e7f-4227-4da7-b1da-f1e13235f8d4",
    "venue_name": "The Farm SF",
    "latitude": 37.788307,
    "longitude": -122.404099,
    "reservations": 1,
    "spend": 20.0
  }
]