[
  {
    "venue_id": "4aa0aa63-1c66-426b-9c0c-7d270054a7da",
    "venue_name": "Common Desk - Dallas Arts District",
    "latitude": 32.787533,
    "longitude": -96.799164,
    "reservations": 81,
    "spend": 2415.0
  },
  {
    "venue_id": "b3a8efd8-f528-4c94-8bef-86100b01344f",
    "venue_name": "Common Desk - West End",
    "latitude": 32.783169,
    "longitude": -96.807869,
    "reservations": 13,
    "spend": 325.0
  },
  {
    "venue_id": "bdabe831-94b0-4710-ad67-371b54edb4d7",
    "venue_name": "Venture X | Dallas by the Galleria",
    "latitude": 32.933678,
    "longitude": -96.817162,
    "reservations": 3,
    "spend": 105.0
  },
  {
    "venue_id": "aed901f7-d283-44f1-850f-621e70c876b5",
    "venue_name": "Regus | Irving/Coppell",
    "latitude": 32.928944,
    "longitude": -96.989594,
    "reservations": 1,
    "spend": 102.0
  },
  {
    "venue_id": "ec62aaf5-1e33-4e47-85a8-307344f7d15c",
    "venue_name": "Hatchways Victory Park",
    "latitude": 32.786457,
    "longitude": -96.809349,
    "reservations": 1,
    "spend": 30.0
  },
  {
    "venue_id": "06ee9527-f27f-43fe-ae6a-ba36003a0000",
    "venue_name": "Flex at The Gild",
    "latitude": 32.863899,
    "longitude": -96.769119,
    "reservations": 1,
    "spend": 25.0
  }
]