[
  {
    "venue_id": "04ecbc8d-5eb7-445c-b2a2-59162a7788f2",
    "venue_name": "WeWork | Colony Square",
    "latitude": 33.786949,
    "longitude": -84.382828,
    "reservations": 52,
    "spend": 4939.0
  },
  {
    "venue_id": "86ba6415-fe35-4523-85e1-4de0a7def96d",
    "venue_name": "SPACES | Colony Square",
    "latitude": 33.787502,
    "longitude": -84.383041,
    "reservations": 6,
    "spend": 1975.76
  },
  {
    "venue_id": "2d2a9a41-ea83-4e56-b8e4-cce6b68a6707",
    "venue_name": "Industrious - Ponce City Market",
    "latitude": 33.772522,
    "longitude": -84.365967,
    "reservations": 15,
    "spend": 1125.0
  },
  {
    "venue_id": "d8a11ce6-2d5b-48b5-9ae8-48d0df7046d3",
    "venue_name": "Industrious - Buckhead Village",
    "latitude": 33.838947,
    "longitude": -84.377625,
    "reservations": 6,
    "spend": 504.0
  },
  {
    "venue_id": "0ca9b1f3-0ec1-4aee-a60b-981710f98887",
    "venue_name": "Alkaloid Networks",
    "latitude": 33.758904,
    "longitude": -84.364799,
    "reservations": 6,
    "spend": 500.0
  },
  {
    "venue_id": "1150fffc-6013-4f71-97d5-8578f74eb88f",
    "venue_name": "Peachtree Offices at Downtown, Inc.",
    "latitude": 33.760399,
    "longitude": -84.387466,
    "reservations": 1,
    "spend": 495.0
  },
  {
    "venue_id": "bf11a310-23a3-4507-b0a8-3711c300e94b",
    "venue_name": "Regus | Glenridge",
    "latitude": 33.903801,
    "longitude": -84.360497,
    "reservations": 2,
    "spend": 390.0
  },
  {
    "venue_id": "b9d23853-b1c1-4a2d-85bd-16f45aa06682",
    "venue_name": "WeWork | 1155 Perimeter Center West",
    "latitude": 33.930008,
    "longitude": -84.351089,
    "reservations": 9,
    "spend": 378.0
  },
  {
    "venue_id": "b8e128d1-8165-4c90-ae2a-cfa525b23272",
    "venue_name": "No18 | Atlanta - Buckhead",
    "latitude": 33.839096,
    "longitude": -84.378372,
    "reservations": 1,
    "spend": 239.0
  },
  {
    "venue_id": "f86dc4d7-b966-495a-90e2-5d846b9384b6",
    "venue_name": "Expansive - Atlanta Perimeter Center",
    "latitude": 33.927532,
    "longitude": -84.342834,
    "reservations": 2,
    "spend": 228.0
  },
  {
    "venue_id": "597918e1-7e7d-4421-8c5e-2656513e7aa8",
    "venue_name": "Roam Buckhead - Piedmont",
    "latitude": 33.846756,
    "longitude": -84.372482,
    "reservations": 3,
    "spend": 220.0
  },
  {
    "venue_id": "76a9d596-203d-42e0-a964-6592d95580aa",
    "venue_name": "Serendipity Labs - Atlanta Buckhead",
    "latitude": 33.851959,
    "longitude": -84.367592,
    "reservations": 3,
    "spend": 173.0
  },
  {
    "venue_id": "b18dcc7a-2b0b-414a-80c7-183efd991de0",
    "venue_name": "WeWork | Terminus 100",
    "latitude": 33.844425,
    "longitude": -84.371048,
    "reservations": 4,
    "spend": 140.0
  },
  {
    "venue_id": "9a16ef1d-67c7-481b-a1b8-6b59617c1eca",
    "venue_name": "Life Time Work - Buckhead",
    "latitude": 33.853371,
    "longitude": -84.363602,
    "reservations": 2,
    "spend": 130.0
  },
  {
    "venue_id": "80c6479f-9e52-4f55-9d66-350a30d9369c",
    "venue_name": "Roam Galleria",
    "latitude": 33.878651,
    "longitude": -84.456612,
    "reservations": 2,
    "spend": 100.0
  },
  {
    "venue_id": "0c4239c7-d618-442c-9a8f-3e6ac4b503bf",
    "venue_name": "Lucid Private Offices | Cumberland - Battery",
    "latitude": 33.896763,
    "longitude": -84.461662,
    "reservations": 1,
    "spend": 75.0
  },
  {
    "venue_id": "5f29755f-19b1-44d5-b163-375ec7986e43",
    "venue_name": "Lucid Private Offices | Buckhead",
    "latitude": 33.847836,
    "longitude": -84.365791,
    "reservations": 1,
    "spend": 75.0
  },
  {
    "venue_id": "106a1b5d-57a8-4f78-be8c-20022180f34b",
    "venue_name": "Roam Buckhead - Peachtree",
    "latitude": 33.851471,
    "longitude": -84.360031,
    "reservations": 1,
    "spend": 60.0
  },
  {
    "venue_id": "c39f2b81-3a3e-411c-9b3b-8ee43c1eb2e8",
    "venue_name": "Regus | City View",
    "latitude": 33.873959,
    "longitude": -84.458656,
    "reservations": 1,
    "spend": 48.0
  },
  {
    "venue_id": "3b4e5b84-ba98-46c1-bf00-f3ffaa58afe9",
    "venue_name": "worCPlaces at Lakeside",
    "latitude": 33.912685,
    "longitude": -84.360092,
    "reservations": 1,
    "spend": 30.0
  }
]