[
  {
    "venue_id": "bce0be91-251d-4fbd-aa86-3ef51252d1fa",
    "venue_name": "Jay Conference Bryant Park - Conference & Event Space",
    "latitude": 40.75349,
    "longitude": -73.985977,
    "reservations": 2,
    "spend": 3100.0
  },
  {
    "venue_id": "532868a6-52e0-40e2-be4d-74196e01f2e4",
    "venue_name": "Jay Conference - Bryant Park Conference Center",
    "latitude": 40.75346,
    "longitude": -73.985893,
    "reservations": 2,
    "spend": 2800.0
  },
  {
    "venue_id": "78dfb691-1abe-4c18-934c-7f9327a06cc8",
    "venue_name": "WorkHouse NYC | Midtown - Grand Central",
    "latitude": 40.756721,
    "longitude": -73.980042,
    "reservations": 1,
    "spend": 1150.0
  },
  {
    "venue_id": "1a323ea9-4171-4680-9c1d-ae60a0fadbff",
    "venue_name": "Jay Suites Bryant Park - 1441 Broadway",
    "latitude": 40.754822,
    "longitude": -73.986916,
    "reservations": 1,
    "spend": 500.0
  },
  {
    "venue_id": "fe9dc55c-cacf-44f2-bbbe-a8fc790c8b4e",
    "venue_name": "Cre8ive NYC",
    "latitude": 40.74715,
    "longitude": -73.991776,
    "reservations": 1,
    "spend": 156.0
  }
]