[
  {
    "venue_id": "a1dbfa0e-bc90-42c4-b187-012da57f9b06",
    "venue_name": "Aloft Miami Airport",
    "latitude": 25.808659,
    "longitude": -80.314743,
    "reservations": 32,
    "spend": 11100.0
  },
  {
    "venue_id": "157196d2-ecd2-403e-a422-b67cd47a3070",
    "venue_name": "The HUB @ Office Logic",
    "latitude": 25.790745,
    "longitude": -80.187859,
    "reservations": 21,
    "spend": 2709.0
  },
  {
    "venue_id": "94abbdc1-d9fc-46ab-b4e5-0a550efc4cf1",
    "venue_name": "Quest Workspaces - One Biscayne",
    "latitude": 25.773788,
    "longitude": -80.187973,
    "reservations": 6,
    "spend": 1674.0
  },
  {
    "venue_id": "d8331ad6-5cf8-4227-8239-fbd82f275dc8",
    "venue_name": "Insuralife",
    "latitude": 25.721579,
    "longitude": -80.316742,
    "reservations": 43,
    "spend": 1437.0
  },
  {
    "venue_id": "77809b67-1436-43ac-90c0-748d063619e8",
    "venue_name": "Nuvo Suites Hotel",
    "latitude": 25.790211,
    "longitude": -80.369995,
    "reservations": 1,
    "spend": 350.0
  },
  {
    "venue_id": "b8dee293-e85d-482f-9145-9cb779ceab59",
    "venue_name": "Quest Workspaces- 1395 Brickell",
    "latitude": 25.76058,
    "longitude": -80.191208,
    "reservations": 1,
    "spend": 325.0
  },
  {
    "venue_id": "44832128-77e1-4806-a6e5-c090e0450509",
    "venue_name": "Group Office Space 24",
    "latitude": 25.762131,
    "longitude": -80.192329,
    "reservations": 1,
    "spend": 250.0
  },
  {
    "venue_id": "400076eb-d767-42c3-9e1a-bae13aa23707",
    "venue_name": "BrainBox",
    "latitude": 25.810936,
    "longitude": -80.198349,
    "reservations": 1,
    "spend": 250.0
  },
  {
    "venue_id": "4b670cdc-c37f-4308-95f1-d7cc092f7b85",
    "venue_name": "Tedge Mindful Coworking",
    "latitude": 25.808411,
    "longitude": -80.194069,
    "reservations": 1,
    "spend": 220.0
  },
  {
    "venue_id": "0015b73f-0f5e-4e7a-994a-37c56b40ca2a",
    "venue_name": "mindwarehouse",
    "latitude": 25.775223,
    "longitude": -80.191299,
    "reservations": 1,
    "spend": 189.0
  },
  {
    "venue_id": "efcb665c-ba35-43f1-8876-e77569a8e834",
    "venue_name": "Tax Prep",
    "latitude": 25.6852,
    "longitude": -80.385132,
    "reservations": 1,
    "spend": 48.0
  },
  {
    "venue_id": "653a4320-04e9-4999-becb-9170fd633cf1",
    "venue_name": "WeWork | 2222 Ponce de Leon",
    "latitude": 25.751348,
    "longitude": -80.259087,
    "reservations": 1,
    "spend": 47.0
  }
]