[
  {
    "venue_id": "9d94692f-b939-4ec3-847b-97bc7ccfd844",
    "venue_name": "Expansive - North First",
    "latitude": 37.37727,
    "longitude": -121.920334,
    "reservations": 182,
    "spend": 90274.5
  },
  {
    "venue_id": "a5e1d1d2-fb03-4cb5-8e16-0bff7c14fdc0",
    "venue_name": "(SJ2) Silicon Valley Center",
    "latitude": 37.3853,
    "longitude": -121.924828,
    "reservations": 4,
    "spend": 4000.0
  },
  {
    "venue_id": "d687e00a-ee6c-4485-80ae-702656a59b1e",
    "venue_name": "University of San Jose",
    "latitude": 37.364262,
    "longitude": -121.912361,
    "reservations": 7,
    "spend": 1076.0
  },
  {
    "venue_id": "23abbae6-932d-499a-a20c-0c1e8235eb17",
    "venue_name": "Regus | CA, San Jose - South San Jose",
    "latitude": 37.236401,
    "longitude": -121.778,
    "reservations": 1,
    "spend": 455.0
  },
  {
    "venue_id": "2d537039-65f9-4191-a24d-b915d3a2b363",
    "venue_name": "Silicon Valley Business Center",
    "latitude": 37.26165,
    "longitude": -121.923103,
    "reservations": 1,
    "spend": 110.0
  }
]