[
  {
    "venue_id": "ba11eec5-4a18-49d4-a27e-f77044b41eba",
    "venue_name": "Venture X | West Palm Beach - CityPlace",
    "latitude": 26.70713,
    "longitude": -80.057022,
    "reservations": 21,
    "spend": 8405.0
  },
  {
    "venue_id": "7859252e-f548-47ad-a2c0-b87e55d00d13",
    "venue_name": "Office Evolution | West Palm Beach",
    "latitude": 26.691484,
    "longitude": -80.071518,
    "reservations": 1,
    "spend": 250.0
  },
  {
    "venue_id": "725ddee4-e608-42fc-862a-5612adf9aab1",
    "venue_name": "The Space Connect",
    "latitude": 26.737373,
    "longitude": -80.052528,
    "reservations": 1,
    "spend": 150.0
  },
  {
    "venue_id": "98b8f0ba-a900-4d27-857f-5eed156175f4",
    "venue_name": "Quest Workspaces - West Palm Beach Downtown",
    "latitude": 26.717598,
    "longitude": -80.051529,
    "reservations": 1,
    "spend": 65.0
  },
  {
    "venue_id": "1c6617ff-d376-4fd8-a08d-b8334d4d24fe",
    "venue_name": "Echelon Executive Suites",
    "latitude": 26.75412,
    "longitude": -80.082306,
    "reservations": 1,
    "spend": 50.0
  },
  {
    "venue_id": "79db3c4f-f562-4ccb-975e-e90b77ff5cce",
    "venue_name": "Zen in West Palm Beach",
    "latitude": 26.725487,
    "longitude": -80.081688,
    "reservations": 1,
    "spend": 50.0
  }
]