[
  {
    "venue_id": "fe7cb8c1-7d06-40a7-8b7b-38d5d0322818",
    "venue_name": "Venture X | Downtown Orlando",
    "latitude": 28.541105,
    "longitude": -81.3769,
    "reservations": 48,
    "spend": 17575.0
  },
  {
    "venue_id": "dc636eef-6ae2-40ca-9654-7934252c879d",
    "venue_name": "Serendipity Labs Orlando - Downtown",
    "latitude": 28.537056,
    "longitude": -81.379333,
    "reservations": 15,
    "spend": 3908.0
  },
  {
    "venue_id": "65fb4656-c5b6-46d1-8f52-a4529f7dcf34",
    "venue_name": "The Conduit",
    "latitude": 28.558123,
    "longitude": -81.378822,
    "reservations": 6,
    "spend": 2535.0
  },
  {
    "venue_id": "4ebfc06a-9caf-44f5-9dcc-b5849a8e7927",
    "venue_name": "Expansive - Angebilt Building",
    "latitude": 28.542749,
    "longitude": -81.378883,
    "reservations": 10,
    "spend": 1365.0
  },
  {
    "venue_id": "616d7a6b-3d3c-4fb1-902f-cd7d1fd1fa1e",
    "venue_name": "Orlando Office Center - Downtown Orlando",
    "latitude": 28.54707,
    "longitude": -81.379913,
    "reservations": 2,
    "spend": 333.0
  },
  {
    "venue_id": "de91649f-d257-4f84-ac9d-89f45960adc0",
    "venue_name": "Regus | Sand Lake",
    "latitude": 28.449211,
    "longitude": -81.48156,
    "reservations": 1,
    "spend": 198.0
  },
  {
    "venue_id": "6ef71116-ac9e-42d4-833b-9b823c6ea7fe",
    "venue_name": "ExecuSuites Southwest  LLC",
    "latitude": 28.484232,
    "longitude": -81.45752,
    "reservations": 1,
    "spend": 125.0
  }
]