[
  {
    "venue_id": "81bd15a9-e021-4d57-8b5c-67d3190b924e",
    "venue_name": "Regus | Lincoln Center III",
    "latitude": 42.997818,
    "longitude": -88.040581,
    "reservations": 19,
    "spend": 2756.46
  },
  {
    "venue_id": "7490819a-d541-4484-ad88-6b53ba01d281",
    "venue_name": "Expansive - Cathedral Square",
    "latitude": 43.040997,
    "longitude": -87.906281,
    "reservations": 4,
    "spend": 448.0
  },
  {
    "venue_id": "818a8acd-015a-41fa-ac10-975b5071a97f",
    "venue_name": "Regus | Liberty 1 at Park Place",
    "latitude": 43.152603,
    "longitude": -88.052963,
    "reservations": 2,
    "spend": 430.0
  },
  {
    "venue_id": "d8113147-8de3-4b75-9cac-ea06a3a3c067",
    "venue_name": "Relics Works + Relics Studio",
    "latitude": 43.026516,
    "longitude": -87.910576,
    "reservations": 1,
    "spend": 216.0
  },
  {
    "venue_id": "83a41d73-3703-47c9-97a9-ab0ce4eff357",
    "venue_name": "BizStarts Community Market",
    "latitude": 43.02956,
    "longitude": -87.911339,
    "reservations": 1,
    "spend": 149.0
  }
]