[
  {
    "venue_id": "a18ac80f-1921-43e5-b3c7-35d632731eed",
    "venue_name": "THRIVE | Alpharetta",
    "latitude": 34.075443,
    "longitude": -84.295967,
    "reservations": 5,
    "spend": 1302.0
  },
  {
    "venue_id": "96535037-87cf-4c21-9c9c-87330316b034",
    "venue_name": "Roam Alpharetta",
    "latitude": 34.087574,
    "longitude": -84.255783,
    "reservations": 3,
    "spend": 645.0
  },
  {
    "venue_id": "a5166700-b48e-4a2c-96d6-097edb7bfe36",
    "venue_name": "Serendipity Labs - Alpharetta - North Point",
    "latitude": 34.045681,
    "longitude": -84.299095,
    "reservations": 1,
    "spend": 196.0
  },
  {
    "venue_id": "d5e27338-c3aa-4fa8-91ba-230bda57fe28",
    "venue_name": "Regus | Avalon",
    "latitude": 34.070435,
    "longitude": -84.274185,
    "reservations": 1,
    "spend": 135.32
  },
  {
    "venue_id": "3bd6c53a-fe59-4b82-b726-9ec5fec63487",
    "venue_name": "Office Evolution - Atlanta Office Venture",
    "latitude": 34.06649,
    "longitude": -84.278999,
    "reservations": 2,
    "spend": 100.0
  }
]