[
  {
    "venue_id": "9e20ac9d-c230-4a0b-ac09-f5f4d851cd0e",
    "venue_name": "WeWork | One Glenwood",
    "latitude": 35.780548,
    "longitude": -78.647942,
    "reservations": 741,
    "spend": 169826.6
  },
  {
    "venue_id": "2760956a-fe0b-4053-b2fa-557387c16631",
    "venue_name": "SPACES | The Dillon",
    "latitude": 35.778,
    "longitude": -78.645699,
    "reservations": 47,
    "spend": 45056.83
  },
  {
    "venue_id": "78a0d741-056d-4979-b77a-9f70783b72c9",
    "venue_name": "Regus | Cap Trust Tower",
    "latitude": 35.837059,
    "longitude": -78.640053,
    "reservations": 15,
    "spend": 3948.77
  },
  {
    "venue_id": "34c7776f-f4c2-40a1-9f59-a71e72ef4e01",
    "venue_name": "Regus | Forum I (Office Suites Plus)",
    "latitude": 35.896748,
    "longitude": -78.651978,
    "reservations": 17,
    "spend": 2521.19
  },
  {
    "venue_id": "d9617e43-4a67-460a-a343-6ae9e55ec44f",
    "venue_name": "Regus | NC, Raleigh -  North Hills Tower II",
    "latitude": 35.838051,
    "longitude": -78.64077,
    "reservations": 6,
    "spend": 2419.19
  },
  {
    "venue_id": "d5dbaf9c-b01c-4dd0-af04-660b6807e9b9",
    "venue_name": "The Loading Dock - Beryl Road",
    "latitude": 35.793404,
    "longitude": -78.691902,
    "reservations": 3,
    "spend": 480.0
  },
  {
    "venue_id": "4cdfc97c-9839-46ee-9d7e-4462074f4b1e",
    "venue_name": "Spaces | NC, Raleigh - Spaces Crabtree Terrace",
    "latitude": 35.84243,
    "longitude": -78.683258,
    "reservations": 1,
    "spend": 405.0
  },
  {
    "venue_id": "e379179e-46fa-4b9a-b129-bb84465787c9",
    "venue_name": "The Loading Dock - Dock 1053",
    "latitude": 35.808975,
    "longitude": -78.621254,
    "reservations": 4,
    "spend": 348.0
  },
  {
    "venue_id": "f975ea2d-b62a-4f71-b33d-5a52aca8cdcd",
    "venue_name": "Access Office Business Center",
    "latitude": 35.902863,
    "longitude": -78.765869,
    "reservations": 1,
    "spend": 250.0
  },
  {
    "venue_id": "d64aeb71-6a8c-43ea-8157-1448b525f92c",
    "venue_name": "Regus | Anson Way",
    "latitude": 35.896107,
    "longitude": -78.646858,
    "reservations": 1,
    "spend": 149.29
  },
  {
    "venue_id": "68691f6b-0501-455d-8327-b2faec120434",
    "venue_name": "HQ | NC, Raleigh - Pleasant Valley Rd",
    "latitude": 35.86047,
    "longitude": -78.704712,
    "reservations": 1,
    "spend": 85.2
  }
]