[
  {
    "venue_id": "9dcd2646-55a6-42b5-ba7c-883a253c0a52",
    "venue_name": "Expansive - Gaslamp",
    "latitude": 32.716999,
    "longitude": -117.158966,
    "reservations": 2,
    "spend": 1125.0
  },
  {
    "venue_id": "b8e13b11-20ee-4366-99d6-265684b20ed2",
    "venue_name": "SPACES || University Town Center",
    "latitude": 32.874699,
    "longitude": -117.207001,
    "reservations": 3,
    "spend": 210.93
  },
  {
    "venue_id": "de8b5a0f-d6ed-4526-a039-b74d4d3d4920",
    "venue_name": "Regus | 501 W. Broadway",
    "latitude": 32.715286,
    "longitude": -117.167747,
    "reservations": 1,
    "spend": 146.69
  },
  {
    "venue_id": "691d71e8-a18f-44ea-9f7f-c4b9cd2c7f89",
    "venue_name": "Regus | Diamond View",
    "latitude": 32.7089,
    "longitude": -117.155998,
    "reservations": 1,
    "spend": 106.86
  },
  {
    "venue_id": "a421ce28-cd9a-4919-a1a4-32c46d79ab60",
    "venue_name": "Union Cowork North Park",
    "latitude": 32.748951,
    "longitude": -117.12989,
    "reservations": 1,
    "spend": 35.0
  }
]