[
  {
    "venue_id": "582750d6-34c3-48c0-aaa8-2be9e291dcc7",
    "venue_name": "Regus | Houston‚ Spaces Downtown Greenstreet",
    "latitude": 29.754377,
    "longitude": -95.365128,
    "reservations": 1,
    "spend": 962.5
  },
  {
    "venue_id": "801faace-7fc9-456b-bd29-af38260ce9ac",
    "venue_name": "Life Time Work - City Centre Five",
    "latitude": 29.781902,
    "longitude": -95.559761,
    "reservations": 3,
    "spend": 915.0
  },
  {
    "venue_id": "5297d0c4-0167-45a9-9517-fea8f29a73ed",
    "venue_name": "Regus | West Loop",
    "latitude": 29.745701,
    "longitude": -95.457703,
    "reservations": 1,
    "spend": 763.0
  },
  {
    "venue_id": "c3ce03aa-b395-454d-b2ef-ee3818ede996",
    "venue_name": "Lucid Private Offices | Uptown Tanglewood",
    "latitude": 29.73851,
    "longitude": -95.478889,
    "reservations": 2,
    "spend": 545.0
  },
  {
    "venue_id": "56d4c9d4-ef38-44e3-af77-267bcaabcb41",
    "venue_name": "Spaces | TX, Houston - 708 Main Street",
    "latitude": 29.759039,
    "longitude": -95.363625,
    "reservations": 1,
    "spend": 535.5
  },
  {
    "venue_id": "4ed16aba-c7d5-4898-bf1e-9bdddd2aa529",
    "venue_name": "Life Time Work - Green Street",
    "latitude": 29.75429,
    "longitude": -95.36541,
    "reservations": 7,
    "spend": 530.0
  },
  {
    "venue_id": "b006579a-4a7f-4eca-873e-c41bf2503ffd",
    "venue_name": "Local Office",
    "latitude": 29.725185,
    "longitude": -95.419434,
    "reservations": 2,
    "spend": 360.0
  },
  {
    "venue_id": "d4ef8fc0-0561-4ec0-b01d-69a84323f302",
    "venue_name": "FUSE Workspace-City Centre",
    "latitude": 29.779018,
    "longitude": -95.561096,
    "reservations": 7,
    "spend": 280.0
  },
  {
    "venue_id": "4e2d767d-5bf8-4ba9-872c-2730dac7d904",
    "venue_name": "Common Desk - POST",
    "latitude": 29.766214,
    "longitude": -95.364883,
    "reservations": 9,
    "spend": 250.0
  },
  {
    "venue_id": "0b4d05e3-4342-4003-9a01-a097c8c0aa04",
    "venue_name": "SPACES | Texas, Houston - CityCenter",
    "latitude": 29.780241,
    "longitude": -95.560272,
    "reservations": 2,
    "spend": 162.0
  },
  {
    "venue_id": "4c5330a9-c27e-40c2-8a7b-51de6ec3b1c3",
    "venue_name": "Regus | Two Post Oak Central",
    "latitude": 29.746201,
    "longitude": -95.462601,
    "reservations": 1,
    "spend": 147.0
  },
  {
    "venue_id": "180f5a39-1cda-41a2-a906-bf2486526035",
    "venue_name": "HQ | TX, Houston - Kirby Dr",
    "latitude": 29.67367,
    "longitude": -95.412361,
    "reservations": 1,
    "spend": 127.54
  },
  {
    "venue_id": "bfa70e18-5ce8-4017-8b2c-54b26125d2e7",
    "venue_name": "Common Desk - Post Oak Blvd",
    "latitude": 29.734978,
    "longitude": -95.462791,
    "reservations": 5,
    "spend": 125.0
  },
  {
    "venue_id": "28d9a508-95ae-40dc-9e50-919fd1cc99c1",
    "venue_name": "Regus | Park Ten Place",
    "latitude": 29.786346,
    "longitude": -95.663681,
    "reservations": 1,
    "spend": 55.76
  },
  {
    "venue_id": "c9c00e1c-d110-4360-9cbb-a22bbb9eb3d1",
    "venue_name": "The Office at GP Coworking",
    "latitude": 29.954119,
    "longitude": -95.514053,
    "reservations": 2,
    "spend": 54.0
  },
  {
    "venue_id": "0e6b98cc-749b-4729-bdc2-f84958f6bc9a",
    "venue_name": "Lucid Private Offices | River Oaks Upper Kirby",
    "latitude": 29.730293,
    "longitude": -95.440681,
    "reservations": 1,
    "spend": 35.0
  }
]